     2.11           OBSERVATION DATA    M (MIXED)           RINEX VERSION / TYPE
GPP.DLL V3.2.6                          23 - SEP - 24 00:00 PGM / RUN BY / DATE 
????                                                        MARKER NAME         
                                                            MARKER NUMBER       
                                                            OBSERVER / AGENCY   
020614310277        PROMARK200          S215Ho27            REC # / TYPE / VERS 
NONE                ASH111661                               ANT # / TYPE        
 -2302078.0488 -3716540.4862  4634472.0623                  APPROX POSITION XYZ 
        0.3050       -0.0000       -0.0000                  ANTENNA: DELTA H/E/N
     1     1                                                WAVELENGTH FACT L1/2
    10    L1    L2    C1    P1    P2    C2    D1    D2    S1# / TYPES OF OBSERV 
          S2                                                # / TYPES OF OBSERV 
GPS L1P carrier phase aligned to L1C carrier phase          COMMENT             
GPS L2C carrier phase aligned to L2P carrier phase          COMMENT             
     1.000                                                  INTERVAL            
  2024     9    21    23     0    5.0000000     GPS         TIME OF FIRST OBS   
  2024     9    21    23    30   23.0000000     GPS         TIME OF LAST OBS    
    18                                                      LEAP SECONDS        
     9                                                      # OF SATELLITES     
   G03  1819  1819  1819     0     0  1819  1819  1819  1819PRN / # OF OBS      
        1819                                                PRN / # OF OBS      
   G04  1819  1819  1819     0     0  1819  1819  1819  1819PRN / # OF OBS      
        1819                                                PRN / # OF OBS      
   G06  1819  1819  1819     0     0  1819  1819  1819  1819PRN / # OF OBS      
        1819                                                PRN / # OF OBS      
   G07  1819  1819  1819     0     0  1819  1819  1819  1819PRN / # OF OBS      
        1819                                                PRN / # OF OBS      
   G09  1819  1819  1819     0     0  1819  1819  1819  1819PRN / # OF OBS      
        1819                                                PRN / # OF OBS      
   G11  1782  1780  1782     0     0  1780  1782  1780  1782PRN / # OF OBS      
        1780                                                PRN / # OF OBS      
   G16  1819  1819  1819  1819  1819     0  1819  1819  1819PRN / # OF OBS      
        1819                                                PRN / # OF OBS      
   G26  1819  1819  1819     0     0  1819  1819  1819  1819PRN / # OF OBS      
        1819                                                PRN / # OF OBS      
   G31  1805  1794  1805     0     0  1794  1805  1794  1805PRN / # OF OBS      
        1794                                                PRN / # OF OBS      
                                                            END OF HEADER       
 24  9 21 23  0  5.0000000  0  9G03G04G06G07G09G11G16G26G31
 112472335.30917  87640785.93417  21402775.280                                  
  21402777.300       -2866.535       -2233.669          47.000          45.000  
 105719749.79718  82379019.90618  20117799.480                                  
  20117798.500         208.066         162.119          50.000          52.000  
 124440109.41416  96966322.44916  23680166.720                                  
  23680170.980       -1196.513        -932.361          41.000          40.000  
 123799981.86717  96467513.83616  23558353.620                                  
  23558355.280        2747.611        2140.987          43.000          39.000  
 111247902.91418  86686677.83217  21169773.140                                  
  21169773.960        2154.807        1679.076          48.000          46.000  
 131477914.92616 102450324.81316  25019415.460                                  
  25019418.600        1268.809         988.647          40.000          40.000  
 112056953.14817  87317106.69157  21323729.260    21323728.540    21323727.920  
                      1333.095        1038.768          47.000          33.000  
 115950448.71517  90350997.37117  22064637.020                                  
  22064639.700       -1660.996       -1294.274          45.000          42.000  
 121188228.58217  94432390.51216  23061354.360                                  
  23061355.220       -3339.358       -2602.086          43.000          41.000  
 24  9 21 23  0  6.0000000  0  9G03G04G06G07G09G11G16G26G31
 112475201.65217  87643019.445 7  21403320.720                                  
  21403322.680       -2866.619       -2233.734          47.000          45.000  
 105719541.46118  82378857.570 8  20117759.840                                  
  20117758.840         208.112         162.160          50.000          52.000  
 124441305.77716  96967254.680 6  23680394.380                                  
  23680398.680       -1196.727        -932.499          41.000          40.000  
 123797233.930 7  96465372.59016  23557830.700                                  
  23557832.380        2747.831        2141.166          43.000          39.000  
 111245747.80518  86684998.531 7  21169363.000                                  
  21169363.900        2154.951        1679.181          48.000          46.000  
 131476645.95316 102449336.00416  25019173.980                                  
  25019177.120        1268.675         988.593          40.000          40.000  
 112055619.95717  87316067.84457  21323475.560    21323474.840    21323474.200  
                      1332.782        1038.525          47.000          32.000  
 115952109.60217  90352291.570 7  22064953.080                                  
  22064955.720       -1661.193       -1294.432          46.000          42.000  
 121191567.58617  94434992.32416  23061989.760                                  
  23061990.640       -3339.126       -2601.894          43.000          41.000  
 24  9 21 23  0  7.0000000  0  9G03G04G06G07G09G11G16G26G31
 112478068.648 7  87645253.469 7  21403866.280                                  
  21403868.280       -2867.372       -2234.309          47.000          44.000  
 105719333.715 8  82378695.691 8  20117720.300                                  
  20117719.300         207.389         161.602          50.000          52.000  
 124442502.895 6  96968187.496 6  23680622.200                                  
  23680626.540       -1197.585        -933.199          41.000          40.000  
 123794486.371 7  96463231.641 6  23557307.820                                  
  23557309.540        2747.314        2140.782          43.000          39.000  
 111243593.152 8  86683319.582 7  21168952.960                                  
  21168953.880        2154.341        1678.721          48.000          46.000  
 131475377.754 6 102448347.789 6  25018932.620                                  
  25018935.800        1267.752         987.856          40.000          40.000  
 112054287.668 7  87315029.69947  21323222.000    21323221.300    21323220.680  
                      1331.767        1037.734          47.000          33.000  
 115953771.297 7  90353586.391 7  22065269.280                                  
  22065271.920       -1662.241       -1295.244          45.000          42.000  
 121194906.941 7  94437594.422 6  23062625.200                                  
  23062626.120       -3339.616       -2602.305          43.000          41.000  
 24  9 21 23  0  8.0000000  0  9G03G04G06G07G09G11G16G26G31
 112480935.855 7  87647487.645 7  21404411.880                                  
  21404413.900       -2868.012       -2234.778          47.000          44.000  
 105719126.117 8  82378533.922 8  20117680.780                                  
  20117679.820         206.842         161.205          50.000          52.000  
 124443700.324 6  96969120.566 6  23680850.080                                  
  23680854.420       -1198.318        -933.771          41.000          40.000  
 123791738.777 7  96461090.660 6  23556784.940                                  
  23556786.680        2746.921        2140.460          43.000          39.000  
 111241438.551 8  86681640.668 7  21168542.940                                  
  21168543.860        2153.913        1678.393          48.000          46.000  
 131474109.898 6 102447359.852 6  25018691.360                                  
  25018694.580        1267.034         987.332          40.000          40.000  
 112052955.848 7  87313991.91847  21322968.540    21322967.860    21322967.240  
                      1330.883        1037.064          47.000          33.000  
 115955433.359 7  90354881.500 7  22065585.540                                  
  22065588.220       -1662.959       -1295.793          46.000          42.000  
 121198246.187 7  94440196.422 6  23063260.660                                  
  23063261.580       -3339.943       -2602.524          43.000          40.000  
 24  9 21 23  0  9.0000000  0  9G03G04G06G07G09G11G16G26G31
 112483803.691 7  87649722.324 7  21404957.620                                  
  21404959.660       -2867.907       -2234.748          47.000          44.000  
 105718919.109 8  82378372.617 8  20117641.380                                  
  20117640.400         206.922         161.218          50.000          52.000  
 124444898.539 6  96970054.227 6  23681078.120                                  
  23681082.440       -1198.451        -933.857          41.000          40.000  
 123788991.582 7  96458950.004 6  23556262.180                                  
  23556263.880        2747.217        2140.650          43.000          39.000  
 111239284.406 8  86679962.117 7  21168133.000                                  
  21168133.940        2154.122        1678.519          48.000          46.000  
 131472842.809 6 102446372.504 6  25018450.240                                  
  25018453.460        1266.901         987.191          40.000          40.000  
 112051624.922 7  87312954.82847  21322715.280    21322714.600    21322713.980  
                      1330.673        1036.897          47.000          33.000  
 115957096.227 7  90356177.246 7  22065901.980                                  
  22065904.620       -1663.078       -1295.920          45.000          42.000  
 121201585.797 7  94442798.707 6  23063896.160                                  
  23063897.100       -3339.624       -2602.309          43.000          41.000  
 24  9 21 23  0 10.0000000  0  9G03G04G06G07G09G11G16G26G31
 112486671.758 7  87651957.180 7  21405503.420                                  
  21405505.420       -2868.555       -2235.210          47.000          44.000  
 105718712.262 8  82378211.441 8  20117602.040                                  
  20117601.040         206.354         160.791          50.000          52.000  
 124446097.059 6  96970988.145 6  23681306.220                                  
  23681310.520       -1199.116        -934.371          41.000          40.000  
 123786244.340 7  96456809.297 6  23555739.360                                  
  23555741.080        2746.880        2140.419          43.000          39.000  
 111237130.309 8  86678283.605 7  21167723.100                                  
  21167724.000        2153.633        1678.175          48.000          46.000  
 131471576.051 6 102445385.430 6  25018209.200                                  
  25018212.440        1266.156         986.609          40.000          40.000  
 112050294.461 7  87311918.10247  21322462.100    21322461.440    21322460.800  
                      1329.826        1036.237          47.000          33.000  
 115958759.488 7  90357473.301 7  22066218.500                                  
  22066221.120       -1663.889       -1296.554          45.000          42.000  
 121204925.312 7  94445400.930 6  23064531.640                                  
  23064532.560       -3339.892       -2602.512          43.000          41.000  
 24  9 21 23  0 11.0000000  0  9G03G04G06G07G09G11G16G26G31
 112489540.547 7  87654192.602 7  21406049.320                                  
  21406051.340       -2869.080       -2235.666          47.000          45.000  
 105718506.086 8  82378050.789 8  20117562.820                                  
  20117561.800         205.904         160.436          50.000          52.000  
 124447296.453 6  96971922.730 6  23681534.500                                  
  23681538.760       -1199.673        -934.797          41.000          40.000  
 123783497.578 7  96454668.973 6  23555216.620                                  
  23555218.380        2746.605        2140.187          43.000          40.000  
 111234976.785 8  86676605.535 7  21167313.300                                  
  21167314.160        2153.360        1677.943          48.000          46.000  
 131470310.176 6 102444399.035 6  25017968.300                                  
  25017971.560        1265.575         986.162          40.000          40.000  
 112048964.992 7  87310882.16047  21322209.120    21322208.440    21322207.800  
                      1329.029        1035.607          47.000          33.000  
 115960423.641 7  90358770.031 7  22066535.160                                  
  22066537.840       -1664.457       -1296.976          45.000          42.000  
 121208265.281 7  94448003.500 6  23065167.240                                  
  23065168.160       -3340.118       -2602.681          43.000          41.000  
 24  9 21 23  0 12.0000000  0  9G03G04G06G07G09G11G16G26G31
 112492409.789 7  87656428.363 7  21406595.340                                  
  21406597.340       -2869.418       -2235.894          47.000          45.000  
 105718300.312 8  82377890.438 8  20117523.660                                  
  20117522.680         205.636         160.247          50.000          52.000  
 124448496.410 6  96972857.762 6  23681762.820                                  
  23681767.100       -1200.175        -935.212          41.000          40.000  
 123780751.012 7  96452528.789 6  23554693.980                                  
  23554695.720        2746.513        2140.143          43.000          39.000  
 111232823.520 8  86674927.664 7  21166903.560                                  
  21166904.440        2153.187        1677.816          48.000          46.000  
 131469044.871 6 102443413.074 6  25017727.540                                  
  25017730.740        1265.077         985.776          40.000          40.000  
 112047636.223 7  87309846.75447  21321956.280    21321955.600    21321954.960  
                      1328.487        1035.183          47.000          33.000  
 115962088.426 7  90360067.266 7  22066851.960                                  
  22066854.620       -1665.035       -1297.422          46.000          42.000  
 121211605.391 7  94450606.180 6  23065802.860                                  
  23065803.780       -3340.120       -2602.684          43.000          40.000  
 24  9 21 23  0 13.0000000  0  9G03G04G06G07G09G11G16G26G31
 112495279.555 7  87658664.539 7  21407141.440                                  
  21407143.420       -2870.247       -2236.546          47.000          45.000  
 105718095.016 8  82377730.465 8  20117484.620                                  
  20117483.620         204.907         159.672          50.000          52.000  
 124449697.004 6  96973793.281 6  23681991.280                                  
  23681995.600       -1201.067        -935.883          41.000          41.000  
 123778004.715 7  96450388.813 6  23554171.360                                  
  23554173.060        2746.056        2139.792          43.000          39.000  
 111230670.629 8  86673250.090 7  21166493.920                                  
  21166494.760        2152.548        1677.316          48.000          46.000  
 131467780.227 6 102442427.633 6  25017486.900                                  
  25017490.060        1264.088         985.010          40.000          40.000  
 112046308.230 7  87308811.95747  21321703.560    21321702.880    21321702.240  
                      1327.469        1034.390          47.000          33.000  
 115963753.887 7  90361365.023 7  22067168.900                                  
  22067171.540       -1666.025       -1298.191          45.000          42.000  
 121214945.730 7  94453209.031 6  23066438.500                                  
  23066439.440       -3340.581       -2603.041          43.000          41.000  
 24  9 21 23  0 14.0000000  0  9G03G04G06G07G09G11G16G26G31
 112498149.270 7  87660900.691 7  21407687.540                                  
  21407689.520       -2870.556       -2236.790          47.000          45.000  
 105717889.602 8  82377570.410 8  20117445.520                                  
  20117444.560         204.639         159.460          50.000          52.000  
 124450897.660 6  96974728.863 6  23682219.760                                  
  23682224.080       -1201.507        -936.252          41.000          41.000  
 123775258.121 7  96448248.629 6  23553648.700                                  
  23553650.360        2745.934        2139.670          43.000          39.000  
 111228517.496 8  86671572.328 7  21166084.200                                  
  21166085.040        2152.438        1677.228          48.000          46.000  
 131466515.652 6 102441442.270 6  25017246.240                                  
  25017249.440        1263.715         984.693          40.000          40.000  
 112044980.438 7  87307777.32047  21321450.900    21321450.220    21321449.560  
                      1326.892        1033.940          47.000          33.000  
 115965419.465 7  90362662.887 7  22067485.840                                  
  22067488.520       -1666.483       -1298.598          46.000          42.000  
 121218285.688 7  94455811.602 6  23067074.080                                  
  23067075.000       -3340.648       -2603.109          43.000          41.000  
 24  9 21 23  0 15.0000000  0  9G03G04G06G07G09G11G16G26G31
 112501019.805 7  87663137.465 7  21408233.780                                  
  21408235.820       -2870.792       -2236.984          47.000          45.000  
 105717684.949 8  82377410.941 8  20117406.580                                  
  20117405.620         204.419         159.284          50.000          52.000  
 124452099.258 6  96975665.172 6  23682448.440                                  
  23682452.740       -1201.888        -936.535          41.000          40.000  
 123772512.086 7  96446108.863 6  23553126.100                                  
  23553127.840        2745.876        2139.652          43.000          39.000  
 111226365.008 8  86669895.063 7  21165674.600                                  
  21165675.420        2152.331        1677.152          48.000          46.000  
 131465252.031 6 102440457.625 6  25017005.760                                  
  25017009.000        1263.330         984.437          40.000          40.000  
 112043653.715 7  87306743.51247  21321198.440    21321197.760    21321197.120  
                      1326.356        1033.522          47.000          33.000  
 115967086.023 7  90363961.500 7  22067803.000                                  
  22067805.680       -1666.911       -1298.924          46.000          42.000  
 121221626.219 7  94458414.609 6  23067709.740                                  
  23067710.740       -3340.605       -2603.061          43.000          41.000  
 24  9 21 23  0 16.0000000  0  9G03G04G06G07G09G11G16G26G31
 112503890.824 7  87665374.621 7  21408780.120                                  
  21408782.160       -2871.433       -2237.475          47.000          45.000  
 105717480.730 8  82377251.809 8  20117367.700                                  
  20117366.780         203.815         158.829          50.000          52.000  
 124453301.453 6  96976601.949 6  23682677.220                                  
  23682681.520       -1202.709        -937.152          41.000          40.000  
 123769766.285 7  96443969.285 6  23552603.620                                  
  23552605.360        2745.537        2139.385          43.000          39.000  
 111224212.844 8  86668218.055 7  21165265.060                                  
  21165265.860        2151.792        1676.722          48.000          46.000  
 131463989.020 6 102439473.461 6  25016765.400                                  
  25016768.700        1262.510         983.773          40.000          40.000  
 112042327.754 7  87305710.29747  21320946.100    21320945.440    21320944.800  
                      1325.418        1032.796          47.000          33.000  
 115968753.242 7  90365260.629 7  22068120.240                                  
  22068122.980       -1667.676       -1299.466          46.000          42.000  
 121224966.906 7  94461017.734 6  23068345.460                                  
  23068346.500       -3341.019       -2603.380          43.000          40.000  
 24  9 21 23  0 17.0000000  0  9G03G04G06G07G09G11G16G26G31
 112506761.812 7  87667611.750 7  21409326.460                                  
  21409328.480       -2871.565       -2237.562          47.000          45.000  
 105717276.441 8  82377092.621 8  20117328.820                                  
  20117327.900         203.731         158.765          50.000          52.000  
 124454503.754 6  96977538.797 6  23682906.000                                  
  23682910.320       -1202.935        -937.327          41.000          41.000  
 123767020.215 7  96441829.488 6  23552081.040                                  
  23552082.800        2745.656        2139.486          43.000          39.000  
 111222060.484 8  86666540.891 7  21164855.500                                  
  21164856.280        2151.851        1676.768          48.000          46.000  
 131462726.125 6 102438489.387 6  25016525.060                                  
  25016528.400        1262.290         983.602          40.000          40.000  
 112041001.992 7  87304677.23847  21320693.800    21320693.160    21320692.520  
                      1325.037        1032.506          47.000          32.000  
 115970420.613 7  90366559.879 7  22068437.500                                  
  22068440.240       -1668.042       -1299.768          46.000          42.000  
 121228307.285 7  94463620.625 6  23068981.120                                  
  23068982.160       -3340.796       -2603.188          43.000          40.000  
 24  9 21 23  0 18.0000000  0  9G03G04G06G07G09G11G16G26G31
 112509633.809 7  87669849.672 7  21409872.980                                  
  21409875.060       -2872.415       -2238.240          47.000          45.000  
 105717073.090 8  82376934.172 8  20117290.140                                  
  20117289.220         202.924         158.119          50.000          52.000  
 124455707.180 6  96978476.535 6  23683134.980                                  
  23683139.300       -1203.937        -938.139          41.000          41.000  
 123764274.891 7  96439690.289 6  23551558.640                                  
  23551560.340        2745.024        2138.983          43.000          40.000  
 111219908.945 8  86664864.371 7  21164446.040                                  
  21164446.880        2151.160        1676.233          48.000          46.000  
 131461464.367 6 102437506.207 6  25016284.980                                  
  25016288.300        1261.266         982.799          40.000          40.000  
 112039677.504 7  87303645.16847  21320441.760    21320441.100    21320440.460  
                      1323.915        1031.616          47.000          33.000  
 115972089.125 7  90367860.020 7  22068755.000                                  
  22068757.740       -1669.070       -1300.576          45.000          42.000  
 121231648.367 7  94466224.055 6  23069616.940                                  
  23069617.960       -3341.347       -2603.619          43.000          40.000  
 24  9 21 23  0 19.0000000  0  9G03G04G06G07G09G11G16G26G31
 112512506.156 7  87672087.859 7  21410419.540                                  
  21410421.700       -2872.793       -2238.546          47.000          44.000  
 105716870.039 8  82376775.945 8  20117251.500                                  
  20117250.560         202.603         157.852          50.000          52.000  
 124456911.051 6  96979414.613 6  23683364.100                                  
  23683368.420       -1204.440        -938.530          41.000          40.000  
 123761529.664 7  96437551.152 6  23551036.240                                  
  23551037.940        2744.950        2138.917          43.000          40.000  
 111217757.598 8  86663187.992 7  21164036.660                                  
  21164037.440        2150.944        1676.061          48.000          46.000  
 131460203.059 6 102436523.363 6  25016045.000                                  
  25016048.260        1260.828         982.451          40.000          40.000  
 112038353.617 7  87302613.57047  21320189.820    21320189.180    21320188.520  
                      1323.312        1031.152          47.000          33.000  
 115973758.164 7  90369160.574 7  22069072.600                                  
  22069075.360       -1669.632       -1301.036          46.000          42.000  
 121234989.488 7  94468827.520 6  23070252.740                                  
  23070253.740       -3341.426       -2603.716          43.000          41.000  
 24  9 21 23  0 20.0000000  0  9G03G04G06G07G09G11G16G26G31
 112515378.902 7  87674326.355 7  21410966.220                                  
  21410968.400       -2873.111       -2238.781          47.000          45.000  
 105716667.332 8  82376617.992 8  20117212.920                                  
  20117212.000         202.389         157.708          50.000          52.000  
 124458115.457 6  96980353.105 6  23683593.320                                  
  23683597.640       -1204.824        -938.829          41.000          40.000  
 123758784.578 7  96435412.129 6  23550513.860                                  
  23550515.600        2744.872        2138.843          43.000          39.000  
 111215606.461 8  86661511.785 7  21163627.320                                  
  21163628.100        2150.871        1675.986          48.000          46.000  
 131458942.301 6 102435540.945 6  25015805.100                                  
  25015808.300        1260.313         982.080          40.000          40.000  
 112037030.395 7  87301582.48847  21319938.040    21319937.380    21319936.700  
                      1322.779        1030.738          47.000          33.000  
 115975427.770 7  90370461.555 7  22069390.320                                  
  22069393.040       -1670.080       -1301.358          45.000          42.000  
 121238330.699 7  94471431.059 6  23070888.540                                  
  23070889.520       -3341.412       -2603.706          43.000          40.000  
 24  9 21 23  0 21.0000000  0  9G03G04G06G07G09G11G16G26G31
 112518252.113 7  87676565.223 7  21411512.980                                  
  21411515.160       -2873.780       -2239.304          47.000          44.000  
 105716465.035 8  82376460.359 8  20117174.420                                  
  20117173.500         201.754         157.220          50.000          52.000  
 124459320.426 6  96981292.043 6  23683822.600                                  
  23683827.020       -1205.621        -939.444          41.000          40.000  
 123756039.699 7  96433273.262 6  23549991.520                                  
  23549993.280        2744.440        2138.541          43.000          39.000  
 111213455.637 8  86659835.820 7  21163218.020                                  
  21163218.840        2150.343        1675.599          48.000          46.000  
 131457682.129 6 102434559.004 6  25015565.300                                  
  25015568.500        1259.512         981.456          40.000          40.000  
 112035707.871 7  87300551.95347  21319686.380    21319685.700    21319685.020  
                      1321.812        1029.980          47.000          33.000  
 115977098.008 7  90371763.039 7  22069708.140                                  
  22069710.880       -1670.896       -1301.989          45.000          42.000  
 121241672.102 7  94474034.750 6  23071524.420                                  
  23071525.360       -3341.845       -2604.013          43.000          40.000  
 24  9 21 23  0 22.0000000  0  9G03G04G06G07G09G11G16G26G31
 112521125.559 7  87678804.266 7  21412059.760                                  
  21412061.980       -2874.078       -2239.537          47.000          45.000  
 105716262.914 8  82376302.867 8  20117135.960                                  
  20117135.020         201.530         157.018          50.000          52.000  
 124460525.777 6  96982231.281 6  23684051.960                                  
  23684056.440       -1206.030        -939.744          41.000          40.000  
 123753294.828 7  96431134.414 6  23549469.180                                  
  23549470.940        2744.463        2138.481          43.000          39.000  
 111211304.855 8  86658159.891 7  21162808.740                                  
  21162809.580        2150.256        1675.518          48.000          46.000  
 131456422.340 6 102433577.352 6  25015325.560                                  
  25015328.760        1259.140         981.127          40.000          40.000  
 112034385.855 7  87299521.81347  21319434.800    21319434.120    21319433.460  
                      1321.307        1029.589          47.000          33.000  
 115978768.648 7  90373064.836 7  22070026.040                                  
  22070028.840       -1671.335       -1302.346          45.000          42.000  
 121245013.434 7  94476638.379 6  23072160.240                                  
  23072161.200       -3341.774       -2604.017          43.000          41.000  
 24  9 21 23  0 23.0000000  0  9G03G04G06G07G09G11G16G26G31
 112524000.094 7  87681044.160 7  21412606.780                                  
  21412609.000       -2874.523       -2239.892          47.000          44.000  
 105716061.836 8  82376146.180 8  20117097.700                                  
  20117096.760         201.148         156.733          50.000          52.000  
 124461732.332 6  96983171.449 6  23684281.540                                  
  23684286.060       -1206.555        -940.182          41.000          40.000  
 123750550.758 7  96428996.188 6  23548947.000                                  
  23548948.740        2744.239        2138.341          43.000          39.000  
 111209155.004 8  86656484.680 7  21162399.660                                  
  21162400.460        2149.995        1675.322          48.000          46.000  
 131455163.758 6 102432596.641 6  25015086.080                                  
  25015089.300        1258.596         980.728          40.000          40.000  
 112033065.168 7  87298492.70747  21319183.480    21319182.800    21319182.160  
                      1320.619        1029.055          47.000          33.000  
 115980440.539 7  90374367.613 7  22070344.180                                  
  22070347.000       -1671.939       -1302.844          45.000          42.000  
 121248355.539 7  94479242.602 6  23072796.220                                  
  23072797.180       -3341.959       -2604.097          44.000          41.000  
 24  9 21 23  0 24.0000000  0  9G03G04G06G07G09G11G16G26G31
 112526874.758 7  87683284.148 7  21413153.800                                  
  21413156.040       -2875.506       -2240.634          47.000          45.000  
 105715860.832 8  82375989.551 8  20117059.440                                  
  20117058.520         200.156         155.970          50.000          52.000  
 124462939.102 6  96984111.785 6  23684511.180                                  
  23684515.660       -1207.713        -941.070          41.000          40.000  
 123747806.594 7  96426857.867 6  23548424.800                                  
  23548426.520        2743.447        2137.781          43.000          39.000  
 111207005.113 8  86654809.437 7  21161990.540                                  
  21161991.340        2149.081        1674.622          48.000          46.000  
 131453905.453 6 102431616.129 6  25014846.640                                  
  25014849.880        1257.452         979.869          40.000          40.000  
 112031744.887 7  87297463.91847  21318932.220    21318931.560    21318930.900  
                      1319.276        1028.016          47.000          33.000  
 115982112.738 7  90375670.625 7  22070662.380                                  
  22070665.160       -1673.102       -1303.703          45.000          42.000  
 121251697.508 7  94481846.727 6  23073432.200                                  
  23073433.100       -3342.619       -2604.607          44.000          41.000  
 24  9 21 23  0 25.0000000  0  9G03G04G06G07G09G11G16G26G31
 112529749.652 8  87685524.324 7  21413700.880                                  
  21413703.100       -2875.401       -2240.551          48.000          44.000  
 105715659.988 8  82375833.055 8  20117021.220                                  
  20117020.300         200.387         156.170          50.000          52.000  
 124464146.230 6  96985052.410 6  23684740.900                                  
  23684745.360       -1207.574        -940.941          41.000          40.000  
 123745062.383 7  96424719.527 6  23547902.580                                  
  23547904.260        2743.836        2138.072          43.000          39.000  
 111204855.266 8  86653134.230 7  21161581.440                                  
  21161582.240        2149.438        1674.924          48.000          46.000  
 131452647.469 6 102430635.891 6  25014607.280                                  
  25014610.520        1257.373         979.781          40.000          40.000  
 112030425.062 7  87296435.48447  21318681.080    21318680.420    21318679.740  
                      1319.190        1027.950          47.000          33.000  
 115983785.301 7  90376973.918 7  22070980.660                                  
  22070983.460       -1673.149       -1303.703          45.000          42.000  
 121255039.371 7  94484450.773 6  23074068.140                                  
  23074069.020       -3342.217       -2604.288          44.000          41.000  
 24  9 21 23  0 26.0000000  0  9G03G04G06G07G09G11G16G26G31
 112532625.402 8  87687765.152 7  21414248.120                                  
  21414250.340       -2876.212       -2241.177          48.000          44.000  
 105715459.965 8  82375677.168 8  20116983.160                                  
  20116982.240         199.670         155.641          50.000          51.000  
 124465354.340 6  96985993.762 6  23684970.800                                  
  23684975.260       -1208.528        -941.644          41.000          39.000  
 123742318.797 7  96422581.652 6  23547380.480                                  
  23547382.200        2743.254        2137.633          43.000          39.000  
 111202706.113 8  86651459.551 7  21161172.460                                  
  21161173.260        2148.816        1674.433          48.000          45.000  
 131451390.516 6 102429656.430 6  25014368.120                                  
  25014371.320        1256.525         979.161          40.000          39.000  
 112029106.367 8  87295407.92247  21318430.140    21318429.480    21318428.800  
                      1318.170        1027.167          48.000          32.000  
 115985458.902 7  90378277.996 6  22071299.160                                  
  22071301.940       -1674.050       -1304.406          46.000          41.000  
 121258381.809 7  94487055.250 6  23074704.180                                  
  23074705.060       -3342.689       -2604.649          44.000          40.000  
 24  9 21 23  0 27.0000000  0  9G03G04G06G07G09G11G16G26G31
 112535500.855 8  87690005.758 7  21414795.300                                  
  21414797.520       -2875.941       -2240.989          48.000          43.000  
 105715259.590 8  82375521.039 8  20116945.020                                  
  20116944.060         199.866         155.694          51.000          51.000  
 124466562.270 6  96986935.020 6  23685200.620                                  
  23685205.160       -1208.516        -941.773          41.000          39.000  
 123739574.637 7  96420443.355 6  23546858.300                                  
  23546860.020        2743.784        2137.961          43.000          39.000  
 111200556.496 8  86649784.531 7  21160763.400                                  
  21160764.140        2149.091        1674.586          49.000          45.000  
 131450133.355 6 102428676.836 6  25014128.920                                  
  25014132.060        1256.544         979.105          40.000          39.000  
 112027787.637 8  87294380.33247  21318179.200    21318178.520    21318177.840  
                      1318.112        1027.111          48.000          33.000  
 115987132.383 7  90379582.023 6  22071617.620                                  
  22071620.360       -1674.058       -1304.495          46.000          41.000  
 121261723.625 7  94489659.277 6  23075340.100                                  
  23075340.980       -3342.110       -2604.320          43.000          39.000  
 24  9 21 23  0 28.0000000  0  9G03G04G06G07G09G11G16G26G31
 112538377.488 8  87692247.301 7  21415342.700                                  
  21415344.920       -2876.716       -2241.614          48.000          43.000  
 105715060.336 8  82375365.789 8  20116907.120                                  
  20116906.120         199.175         155.175          51.000          51.000  
 124467771.508 6  96987877.273 6  23685430.700                                  
  23685435.240       -1209.410        -942.368          41.000          39.000  
 123736831.418 7  96418305.805 6  23546336.340                                  
  23546338.000        2743.268        2137.588          43.000          38.000  
 111198407.895 8  86648110.309 7  21160354.560                                  
  21160355.260        2148.558        1674.160          49.000          44.000  
 131448877.535 6 102427698.285 6  25013889.960                                  
  25013893.060        1255.645         978.401          41.000          39.000  
 112026470.332 8  87293353.86347  21317928.500    21317927.840    21317927.140  
                      1317.050        1026.264          48.000          32.000  
 115988807.219 7  90380887.086 6  22071936.320                                  
  22071939.040       -1674.981       -1305.228          46.000          41.000  
 121265066.371 7  94492264.027 6  23075976.220                                  
  23075977.040       -3342.674       -2604.684          43.000          39.000  
 24  9 21 23  0 29.0000000  0  9G03G04G06G07G09G11G16G26G31
 112541253.598 8  87694488.438 7  21415890.000                                  
  21415892.220       -2875.674       -2240.794          48.000          44.000  
 105714860.512 8  82375210.090 8  20116869.100                                  
  20116868.100         200.393         156.150          50.000          51.000  
 124468980.328 6  96988819.234 6  23685660.720                                  
  23685665.260       -1208.353        -941.588          41.000          39.000  
 123734087.422 7  96416167.648 6  23545814.180                                  
  23545815.800        2744.631        2138.655          43.000          39.000  
 111196258.602 8  86646435.547 7  21159945.560                                  
  21159946.280        2149.919        1675.251          48.000          45.000  
 131447621.313 6 102426719.422 6  25013650.900                                  
  25013654.000        1256.691         979.216          40.000          39.000  
 112025152.770 8  87292327.19947  21317677.760    21317677.120    21317676.400  
                      1317.930        1026.946          48.000          32.000  
 115990481.668 7  90382191.867 6  22072254.960                                  
  22072257.660       -1674.009       -1304.437          45.000          41.000  
 121268408.273 7  94494868.090 6  23076612.160                                  
  23076612.980       -3341.253       -2603.556          43.000          39.000  
 24  9 21 23  0 30.0000000  0  9G03G04G06G07G09G11G16G26G31
 112544131.402 8  87696730.863 7  21416437.620                                  
  21416439.840       -2877.483       -2242.154          48.000          44.000  
 105714662.324 8  82375055.652 8  20116831.380                                  
  20116830.360         198.544         154.734          50.000          51.000  
 124470190.977 6  96989762.582 6  23685891.100                                  
  23685895.600       -1210.399        -943.124          41.000          39.000  
 123731344.879 7  96414030.594 6  23545292.280                                  
  23545293.900        2743.006        2137.449          43.000          39.000  
 111194110.809 8  86644761.930 7  21159536.860                                  
  21159537.560        2148.211        1673.948          48.000          45.000  
 131446366.941 6 102425741.973 6  25013412.200                                  
  25013415.280        1254.661         977.685          40.000          40.000  
 112023837.148 8  87291302.04747  21317427.380    21317426.760    21317426.040  
                      1315.817        1025.311          48.000          33.000  
 115992157.988 7  90383498.078 6  22072573.940                                  
  22072576.680       -1676.112       -1306.028          45.000          41.000  
 121271751.574 7  94497473.254 6  23077248.380                                  
  23077249.200       -3342.868       -2604.848          43.000          39.000  
 24  9 21 23  0 31.0000000  0  9G03G04G06G07G09G11G16G26G31
 112547009.457 8  87698973.504 7  21416985.300                                  
  21416987.500       -2878.467       -2242.970          48.000          44.000  
 105714464.348 8  82374901.379 8  20116793.720                                  
  20116792.680         197.629         153.998          50.000          51.000  
 124471401.980 6  96990706.223 6  23686121.520                                  
  23686126.060       -1211.415        -943.960          41.000          39.000  
 123728602.332 7  96411893.535 6  23544770.420                                  
  23544771.940        2742.252        2136.828          43.000          39.000  
 111191963.121 8  86643088.406 7  21159128.160                                  
  21159128.840        2147.448        1673.339          49.000          45.000  
 131445112.930 6 102424764.832 6  25013173.560                                  
  25013176.680        1253.619         976.860          41.000          39.000  
 112022522.047 8  87290277.30147  21317177.120    21317176.500    21317175.780  
                      1314.602        1024.354          48.000          33.000  
 115993834.750 7  90384804.641 6  22072893.040                                  
  22072895.720       -1677.178       -1306.858          45.000          41.000  
 121275094.867 7  94500078.414 6  23077884.560                                  
  23077885.360       -3343.655       -2605.444          43.000          39.000  
 24  9 21 23  0 32.0000000  0  9G03G04G06G07G09G11G16G26G31
 112549887.551 8  87701216.180 7  21417533.000                                  
  21417535.200       -2879.169       -2243.584          48.000          44.000  
 105714266.340 8  82374747.090 8  20116756.040                                  
  20116754.980         196.968         153.431          50.000          51.000  
 124472613.133 6  96991649.988 6  23686351.980                                  
  23686356.480       -1212.244        -944.681          41.000          40.000  
 123725859.566 7  96409756.352 6  23544248.480                                  
  23544250.020        2741.845        2136.421          43.000          39.000  
 111189815.297 8  86641414.781 7  21158719.440                                  
  21158720.100        2146.817        1672.806          49.000          45.000  
 131443859.098 6 102423787.832 6  25012935.000                                  
  25012938.100        1252.672         976.015          41.000          39.000  
 112021207.230 8  87289252.76247  21316926.920    21316926.300    21316925.560  
                      1313.606        1023.589          48.000          35.000  
 115995511.703 7  90386111.371 6  22073212.160                                  
  22073214.880       -1678.080       -1307.661          45.000          41.000  
 121278437.852 7  94502683.324 6  23078520.720                                  
  23078521.480       -3343.956       -2605.749          43.000          39.000  
 24  9 21 23  0 33.0000000  0  9G03G04G06G07G09G11G16G26G31
 112552766.051 8  87703459.164 7  21418080.760                                  
  21418082.920       -2879.473       -2243.725          48.000          44.000  
 105714068.687 8  82374593.098 8  20116718.440                                  
  20116717.360         196.698         153.272          50.000          51.000  
 124473824.855 6  96992594.191 6  23686582.540                                  
  23686587.060       -1212.728        -944.960          41.000          40.000  
 123723116.957 7  96407619.230 6  23543726.560                                  
  23543728.060        2741.857        2136.566          43.000          39.000  
 111187667.711 8  86639741.348 7  21158310.760                                  
  21158311.400        2146.645        1672.721          49.000          45.000  
 131442605.809 6 102422811.234 6  25012696.500                                  
  25012699.620        1252.297         975.853          41.000          39.000  
 112019893.082 8  87288228.75447  21316676.840    21316676.220    21316675.500  
                      1313.047        1023.156          48.000          33.000  
 115997189.230 7  90387418.535 6  22073531.380                                  
  22073534.100       -1678.615       -1307.974          45.000          41.000  
 121281780.949 7  94505288.348 6  23079156.920                                  
  23079157.660       -3343.910       -2605.643          43.000          39.000  
 24  9 21 23  0 34.0000000  0  9G03G04G06G07G09G11G16G26G31
 112555644.859 8  87705702.387 7  21418628.600                                  
  21418630.700       -2879.230       -2243.549          48.000          44.000  
 105713871.293 8  82374439.273 8  20116680.880                                  
  20116679.780         196.992         153.518          50.000          51.000  
 124475036.941 6  96993538.672 6  23686813.180                                  
  23686817.700       -1212.721        -945.001          41.000          39.000  
 123720374.398 7  96405482.195 6  23543204.640                                  
  23543206.120        2742.226        2136.793          43.000          39.000  
 111185520.254 8  86638068.004 7  21157902.100                                  
  21157902.720        2147.107        1673.076          49.000          45.000  
 131441352.930 6 102421834.965 6  25012458.120                                  
  25012461.160        1252.365         975.815          41.000          39.000  
 112018579.500 8  87287205.18847  21316426.860    21316426.260    21316425.520  
                      1313.022        1023.123          48.000          33.000  
 115998867.203 7  90388726.027 6  22073850.700                                  
  22073853.340       -1678.470       -1307.886          46.000          41.000  
 121285124.059 7  94507893.367 6  23079793.140                                  
  23079793.800       -3343.378       -2605.272          43.000          40.000  
 24  9 21 23  0 35.0000000  0  9G03G04G06G07G09G11G16G26G31
 112558524.484 8  87707946.254 7  21419176.600                                  
  21419178.620       -2879.696       -2243.925          48.000          44.000  
 105713674.668 8  82374286.059 8  20116643.460                                  
  20116642.360         196.599         153.191          51.000          51.000  
 124476250.004 6  96994483.906 6  23687043.980                                  
  23687048.540       -1213.212        -945.316          41.000          39.000  
 123717632.430 7  96403345.598 6  23542682.860                                  
  23542684.380        2742.035        2136.651          44.000          39.000  
 111183373.441 8  86636395.172 7  21157493.600                                  
  21157494.200        2146.809        1672.836          49.000          45.000  
 131440101.020 6 102420859.457 6  25012219.880                                  
  25012222.940        1251.802         975.447          41.000          39.000  
 112017266.980 8  87286182.45347  21316177.100    21316176.500    21316175.740  
                      1312.300        1022.571          48.000          33.000  
 116000546.191 7  90390034.348 6  22074170.220                                  
  22074172.840       -1679.117       -1308.393          46.000          41.000  
 121288467.684 7  94510498.789 6  23080429.420                                  
  23080430.060       -3343.601       -2605.414          43.000          39.000  
 24  9 21 23  0 36.0000000  0  9G03G04G06G07G09G11G16G26G31
 112561404.492 8  87710190.414 7  21419724.660                                  
  21419726.700       -2879.941       -2244.110          48.000          44.000  
 105713478.371 8  82374133.098 8  20116606.120                                  
  20116605.000         196.373         153.012          50.000          51.000  
 124477463.551 6  96995429.520 6  23687274.940                                  
  23687279.500       -1213.604        -945.661          41.000          39.000  
 123714890.582 7  96401209.098 6  23542161.100                                  
  23542162.600        2741.990        2136.619          43.000          39.000  
 111181226.855 8  86634722.504 7  21157085.100                                  
  21157085.720        2146.685        1672.745          49.000          45.000  
 131438849.617 6 102419884.332 6  25011981.740                                  
  25011984.800        1251.316         975.045          41.000          39.000  
 112015955.117 8  87285160.21947  21315927.460    21315926.860    21315926.080  
                      1311.768        1022.153          48.000          33.000  
 116002225.715 7  90391343.055 6  22074489.840                                  
  22074492.460       -1679.573       -1308.747          46.000          41.000  
 121291811.406 7  94513104.285 6  23081065.720                                  
  23081066.340       -3343.513       -2605.352          43.000          40.000  
 24  9 21 23  0 37.0000000  0  9G03G04G06G07G09G11G16G26G31
 112564285.410 8  87712435.277 7  21420272.880                                  
  21420274.880       -2881.779       -2245.541          48.000          44.000  
 105713282.937 8  82373980.813 8  20116568.940                                  
  20116567.800         194.583         151.604          51.000          51.000  
 124478678.125 6  96996375.949 6  23687506.060                                  
  23687510.600       -1215.533        -947.190          41.000          39.000  
 123712149.398 7  96399073.117 6  23541639.520                                  
  23541640.940        2740.412        2135.346          43.000          39.000  
 111179081.012 8  86633050.418 7  21156676.760                                  
  21156677.340        2145.036        1671.444          49.000          45.000  
 131437599.289 6 102418910.055 6  25011743.820                                  
  25011746.840        1249.386         973.514          40.000          39.000  
 112014644.430 8  87284138.91447  21315678.060    21315677.440    21315676.640  
                      1309.680        1020.516          48.000          33.000  
 116003906.332 7  90392652.629 6  22074809.660                                  
  22074812.300       -1681.576       -1310.341          46.000          41.000  
 121295155.750 7  94515710.254 6  23081702.120                                  
  23081702.740       -3345.049       -2606.526          44.000          40.000  
 24  9 21 23  0 38.0000000  0  9G03G04G06G07G09G11G16G26G31
 112567166.152 8  87714680.004 7  21420821.080                                  
  21420823.040       -2881.683       -2245.440          48.000          44.000  
 105713087.258 8  82373828.320 8  20116531.700                                  
  20116530.560         194.725         151.763          51.000          51.000  
 124479892.645 6  96997322.320 6  23687737.180                                  
  23687741.740       -1215.536        -947.108          41.000          39.000  
 123709407.766 7  96396936.773 6  23541117.840                                  
  23541119.240        2740.752        2135.682          43.000          38.000  
 111176934.820 8  86631378.047 7  21156268.360                                  
  21156268.940        2145.299        1671.679          49.000          45.000  
 131436348.863 6 102417935.676 6  25011505.880                                  
  25011508.920        1249.367         973.601          41.000          39.000  
 112013333.801 8  87283117.64547  21315428.640    21315428.040    21315427.240  
                      1309.498        1020.397          48.000          33.000  
 116005586.910 7  90393962.156 6  22075129.460                                  
  22075132.060       -1681.609       -1310.301          46.000          41.000  
 121298499.598 7  94518315.840 6  23082338.420                                  
  23082339.040       -3344.682       -2606.238          44.000          39.000  
 24  9 21 23  0 39.0000000  0  9G03G04G06G07G09G11G16G26G31
 112570047.070 8  87716924.867 7  21421369.300                                  
  21421371.220       -2881.218       -2245.119          48.000          44.000  
 105712891.719 8  82373675.957 8  20116494.480                                  
  20116493.340         195.231         152.107          51.000          51.000  
 124481107.465 7  96998268.926 6  23687968.360                                  
  23687972.880       -1215.189        -946.940          42.000          39.000  
 123706666.082 7  96394800.398 6  23540596.120                                  
  23540597.460        2741.504        2136.221          44.000          39.000  
 111174788.641 8  86629705.695 7  21155859.960                                  
  21155860.500        2145.907        1672.127          49.000          45.000  
 131435098.785 6 102416961.605 6  25011268.000                                  
  25011271.060        1249.626         973.685          41.000          39.000  
 112012023.617 8  87282096.71547  21315179.340    21315178.720    21315177.900  
                      1309.722        1020.569          48.000          33.000  
 116007267.855 7  90395272.004 6  22075449.320                                  
  22075451.940       -1681.352       -1310.193          46.000          41.000  
 121301843.352 7  94520921.348 6  23082974.700                                  
  23082975.360       -3343.932       -2605.663          44.000          40.000  
 24  9 21 23  0 40.0000000  0  9G03G04G06G07G09G11G16G26G31
 112572929.039 8  87719170.563 7  21421917.740                                  
  21421919.620       -2881.954       -2245.691          48.000          44.000  
 105712697.172 8  82373524.371 8  20116457.460                                  
  20116456.300         194.600         151.635          51.000          51.000  
 124482323.445 7  96999216.441 6  23688199.780                                  
  23688204.240       -1215.984        -947.505          42.000          39.000  
 123703925.180 7  96392664.652 6  23540074.540                                  
  23540075.880        2741.018        2135.829          43.000          39.000  
 111172643.336 8  86628034.047 7  21155451.720                                  
  21155452.260        2145.401        1671.719          49.000          45.000  
 131433849.875 6 102415988.434 6  25011030.360                                  
  25011033.440        1248.795         973.093          41.000          39.000  
 112010714.738 8  87281076.80947  21314930.280    21314929.640    21314928.820  
                      1308.785        1019.824          48.000          33.000  
 116008950.008 7  90396582.773 6  22075769.420                                  
  22075772.020       -1682.183       -1310.804          46.000          41.000  
 121305187.832 7  94523527.438 6  23083611.140                                  
  23083611.760       -3344.289       -2605.939          44.000          40.000  
 24  9 21 23  0 41.0000000  0  9G03G04G06G07G09G11G16G26G31
 112575811.371 8  87721416.531 7  21422466.240                                  
  21422468.100       -2883.216       -2246.658          48.000          44.000  
 105712502.937 8  82373373.020 8  20116420.520                                  
  20116419.300         193.377         150.660          50.000          51.000  
 124483539.934 6  97000164.363 6  23688431.260                                  
  23688435.720       -1217.433        -948.697          41.000          39.000  
 123701184.398 7  96390528.973 6  23539552.980                                  
  23539554.320        2739.970        2135.059          43.000          39.000  
 111170498.230 8  86626362.535 7  21155043.520                                  
  21155044.040        2144.312        1670.899          49.000          45.000  
 131432601.477 6 102415015.664 6  25010792.820                                  
  25010795.820        1247.442         972.015          41.000          39.000  
 112009406.484 8  87280057.39547  21314681.340    21314680.700    21314679.840  
                      1307.256        1018.637          48.000          32.000  
 116010632.688 7  90397893.941 6  22076089.640                                  
  22076092.200       -1683.660       -1311.952          46.000          41.000  
 121308532.387 7  94526133.602 6  23084247.580                                  
  23084248.200       -3345.321       -2606.761          43.000          40.000  
